[
    {
        "id": 1,
        "latitude": 50.0625015,
        "longitude": -110.6821866,
        "title": "Lowe, Adams and Stroman",
        "address": "93 Golf Course Drive"
    },
    {
        "id": 2,
        "latitude": 27.69965,
        "longitude": 108.839557,
        "title": "Hilpert Group",
        "address": "58626 Welch Road"
    },
    {
        "id": 3,
        "latitude": 10.0622567,
        "longitude": 105.7381017,
        "title": "Ratke and Sons",
        "address": "44 Merry Drive"
    },
    {
        "id": 4,
        "latitude": 40.2982408,
        "longitude": 70.419388,
        "title": "Rice, Walker and Dach",
        "address": "8759 Upham Alley"
    },
    {
        "id": 5,
        "latitude": 42.951526,
        "longitude": 124.302017,
        "title": "Paucek-Robel",
        "address": "32 Dunning Junction"
    },
    {
        "id": 6,
        "latitude": 36.1592882,
        "longitude": -95.9964783,
        "title": "Stoltenberg-Brakus",
        "address": "60443 Monterey Trail"
    },
    {
        "id": 7,
        "latitude": 17.9092223,
        "longitude": 102.220463,
        "title": "Blick, Monahan and O'Connell",
        "address": "8004 Riverside Road"
    },
    {
        "id": 8,
        "latitude": 46.8282022,
        "longitude": 28.589271,
        "title": "O'Keefe-Sporer",
        "address": "0 Butterfield Point"
    },
    {
        "id": 9,
        "latitude": 31.1206637,
        "longitude": 120.9061578,
        "title": "Bauch LLC",
        "address": "1 Clarendon Alley"
    },
    {
        "id": 10,
        "latitude": 29.461194,
        "longitude": 110.152436,
        "title": "Greenholt-Lang",
        "address": "0060 Veith Way"
    },
    {
        "id": 11,
        "latitude": 16.597659,
        "longitude": 120.493376,
        "title": "Emmerich LLC",
        "address": "5 Sauthoff Road"
    },
    {
        "id": 12,
        "latitude": 30.2915328,
        "longitude": -97.7688358,
        "title": "Waters-Rosenbaum",
        "address": "37357 Buena Vista Crossing"
    },
    {
        "id": 13,
        "latitude": 57.2749315,
        "longitude": 103.7420582,
        "title": "Little-Turcotte",
        "address": "3915 Northport Trail"
    },
    {
        "id": 14,
        "latitude": -2.269994,
        "longitude": 110.724701,
        "title": "Altenwerth-Schimmel",
        "address": "825 Cordelia Crossing"
    },
    {
        "id": 15,
        "latitude": 58.0666667,
        "longitude": 54.6499999,
        "title": "Sipes, Moen and Hayes",
        "address": "636 Jenifer Terrace"
    },
    {
        "id": 16,
        "latitude": 41.2166819,
        "longitude": -8.0597042,
        "title": "Koepp and Sons",
        "address": "8 Talisman Street"
    },
    {
        "id": 17,
        "latitude": 11.6209009,
        "longitude": -85.0791866,
        "title": "Kuhlman-Veum",
        "address": "93 Melrose Street"
    },
    {
        "id": 18,
        "latitude": 45.9735653,
        "longitude": 134.1872425,
        "title": "Schumm Group",
        "address": "52423 Stang Crossing"
    },
    {
        "id": 19,
        "latitude": 53.326905,
        "longitude": 19.0654716,
        "title": "Denesik LLC",
        "address": "3557 Declaration Place"
    },
    {
        "id": 20,
        "latitude": 22.919769,
        "longitude": 113.618216,
        "title": "Kilback LLC",
        "address": "40320 Caliangt Way"
    },
    {
        "id": 21,
        "latitude": 49.1418733,
        "longitude": 15.673001,
        "title": "Erdman, King and Huels",
        "address": "1473 Fairfield Road"
    },
    {
        "id": 22,
        "latitude": -7.5173045,
        "longitude": 110.5933862,
        "title": "Bartell, Dooley and Wilderman",
        "address": "34266 Dunning Point"
    },
    {
        "id": 23,
        "latitude": 47.5173564,
        "longitude": 42.1602043,
        "title": "Larson, Von and Parker",
        "address": "21423 Mallory Pass"
    },
    {
        "id": 24,
        "latitude": 52.9152117,
        "longitude": 23.4961724,
        "title": "Pouros Group",
        "address": "4608 Mifflin Center"
    },
    {
        "id": 25,
        "latitude": 56.4459712,
        "longitude": 39.6602235,
        "title": "Satterfield Group",
        "address": "6070 Kensington Pass"
    },
    {
        "id": 26,
        "latitude": 14.1975137,
        "longitude": 121.5570313,
        "title": "Abshire, Grimes and Senger",
        "address": "56512 Holmberg Avenue"
    },
    {
        "id": 27,
        "latitude": -31.7436794,
        "longitude": -65.0052144,
        "title": "Klocko, Okuneva and Marvin",
        "address": "2 Corben Circle"
    },
    {
        "id": 28,
        "latitude": 59.615642,
        "longitude": 30.1696437,
        "title": "Hills, Fisher and Hintz",
        "address": "37 Algoma Center"
    },
    {
        "id": 29,
        "latitude": 38.5961493,
        "longitude": -9.0880453,
        "title": "Ebert-Reichel",
        "address": "761 Coolidge Court"
    },
    {
        "id": 30,
        "latitude": 50.4915831,
        "longitude": 16.2682843,
        "title": "Powlowski, Kutch and Schowalter",
        "address": "7 Milwaukee Avenue"
    },
    {
        "id": 31,
        "latitude": -6.6126215,
        "longitude": 105.7233814,
        "title": "Hills, Ratke and Dietrich",
        "address": "826 Dryden Point"
    },
    {
        "id": 32,
        "latitude": -20.2081037,
        "longitude": 57.408999,
        "title": "Kohler and Sons",
        "address": "14 Ridge Oak Street"
    },
    {
        "id": 33,
        "latitude": 57.1785332,
        "longitude": 41.9400627,
        "title": "Macejkovic, Mante and Grimes",
        "address": "52875 Springview Way"
    },
    {
        "id": 34,
        "latitude": -8.7067624,
        "longitude": 121.067907,
        "title": "Mueller-Murphy",
        "address": "44 Mallory Lane"
    },
    {
        "id": 35,
        "latitude": 13.8135951,
        "longitude": 100.4227992,
        "title": "Waters LLC",
        "address": "6067 Union Court"
    },
    {
        "id": 36,
        "latitude": 15.8,
        "longitude": 43.333333,
        "title": "Crona-Hudson",
        "address": "57550 Westerfield Place"
    },
    {
        "id": 37,
        "latitude": 38.5537924,
        "longitude": -9.0817894,
        "title": "Yost, Halvorson and Graham",
        "address": "6762 Chive Terrace"
    },
    {
        "id": 38,
        "latitude": 34.676976,
        "longitude": 107.79016,
        "title": "Cummings, Lubowitz and Blanda",
        "address": "63162 Bluestem Lane"
    },
    {
        "id": 39,
        "latitude": 23.534915,
        "longitude": 115.420204,
        "title": "Rohan-McClure",
        "address": "27 Center Avenue"
    },
    {
        "id": 40,
        "latitude": -14.1700712,
        "longitude": 31.1710389,
        "title": "Paucek, O'Keefe and Kuphal",
        "address": "7284 Declaration Trail"
    },
    {
        "id": 41,
        "latitude": 53.8533151,
        "longitude": -8.9949917,
        "title": "O'Hara, Stokes and Renner",
        "address": "70008 Petterle Circle"
    },
    {
        "id": 42,
        "latitude": 49.7995264,
        "longitude": 18.4900139,
        "title": "Vandervort LLC",
        "address": "75826 Pond Trail"
    },
    {
        "id": 43,
        "latitude": 38.739431,
        "longitude": -27.079718,
        "title": "Thompson-Torphy",
        "address": "537 Mallory Center"
    },
    {
        "id": 44,
        "latitude": -14.12,
        "longitude": -71.47278,
        "title": "Moen-Kautzer",
        "address": "75 Larry Junction"
    },
    {
        "id": 45,
        "latitude": 33.7311229,
        "longitude": 130.5200852,
        "title": "Lowe, Stehr and Smitham",
        "address": "27 Thierer Place"
    },
    {
        "id": 46,
        "latitude": 34.477861,
        "longitude": 110.084789,
        "title": "Metz, Hoppe and Boyer",
        "address": "6598 Sachtjen Trail"
    },
    {
        "id": 47,
        "latitude": 43.2150141,
        "longitude": 46.3893765,
        "title": "Haley, Luettgen and Christiansen",
        "address": "9 Memorial Street"
    },
    {
        "id": 48,
        "latitude": 34.2698909,
        "longitude": 108.9469437,
        "title": "Huel Group",
        "address": "745 Carioca Plaza"
    },
    {
        "id": 49,
        "latitude": 43.521619,
        "longitude": -96.722641,
        "title": "Kuhn-Auer",
        "address": "55710 Sommers Drive"
    },
    {
        "id": 50,
        "latitude": -15.2192781,
        "longitude": -49.4059435,
        "title": "Sanford, Upton and Price",
        "address": "06359 Boyd Hill"
    },
    {
        "id": 51,
        "latitude": 49.7274403,
        "longitude": 13.2462275,
        "title": "Strosin, Breitenberg and Zemlak",
        "address": "0098 Oakridge Court"
    },
    {
        "id": 52,
        "latitude": -7.3897541,
        "longitude": 108.8640607,
        "title": "O'Conner-Nolan",
        "address": "7619 Magdeline Court"
    },
    {
        "id": 53,
        "latitude": 50.3748498,
        "longitude": 17.9891121,
        "title": "Gutmann, Rau and Ondricka",
        "address": "1 Novick Junction"
    },
    {
        "id": 54,
        "latitude": 50.1063169,
        "longitude": 22.3570583,
        "title": "Wilkinson-Nicolas",
        "address": "4576 Manufacturers Crossing"
    },
    {
        "id": 55,
        "latitude": -8.0650276,
        "longitude": 113.8011498,
        "title": "Schinner Inc",
        "address": "99571 Fisk Crossing"
    },
    {
        "id": 56,
        "latitude": 49.9293234,
        "longitude": 14.3013689,
        "title": "Dicki, VonRueden and Boehm",
        "address": "198 Paget Crossing"
    },
    {
        "id": 57,
        "latitude": 0.7573413,
        "longitude": 73.434227,
        "title": "Dach Group",
        "address": "59 Bowman Hill"
    },
    {
        "id": 58,
        "latitude": -19.3088778,
        "longitude": -64.3031372,
        "title": "Emard-Dicki",
        "address": "67 Northfield Plaza"
    },
    {
        "id": 59,
        "latitude": 38.8973837,
        "longitude": -77.0395416,
        "title": "Erdman Group",
        "address": "195 Ludington Junction"
    },
    {
        "id": 60,
        "latitude": 32.629398,
        "longitude": 110.798266,
        "title": "Gusikowski, Powlowski and Rolfson",
        "address": "21426 Holy Cross Junction"
    },
    {
        "id": 61,
        "latitude": 61.5656107,
        "longitude": 25.1814985,
        "title": "Cummings-Koepp",
        "address": "54 Dovetail Point"
    },
    {
        "id": 62,
        "latitude": 49.0054448,
        "longitude": 16.598735,
        "title": "Haley-Stanton",
        "address": "29 Twin Pines Center"
    },
    {
        "id": 63,
        "latitude": 14.5968528,
        "longitude": 121.0670507,
        "title": "Wisoky Group",
        "address": "18770 Northview Alley"
    },
    {
        "id": 64,
        "latitude": 37.16516,
        "longitude": 122.486657,
        "title": "Deckow-Zieme",
        "address": "08 Vermont Street"
    },
    {
        "id": 65,
        "latitude": 31.2169358,
        "longitude": 107.497911,
        "title": "Trantow, Stiedemann and Pagac",
        "address": "5 Schlimgen Alley"
    },
    {
        "id": 66,
        "latitude": -0.8406658,
        "longitude": -80.1596041,
        "title": "Jerde-Ledner",
        "address": "75 Iowa Parkway"
    },
    {
        "id": 67,
        "latitude": 24.7512974,
        "longitude": 89.8282604,
        "title": "Kerluke Group",
        "address": "516 Upham Hill"
    },
    {
        "id": 68,
        "latitude": 53.4131023,
        "longitude": 18.0085553,
        "title": "Mills-Morar",
        "address": "22622 Fisk Circle"
    },
    {
        "id": 69,
        "latitude": 26.497669,
        "longitude": 104.980581,
        "title": "Jacobson-Turcotte",
        "address": "19 Main Trail"
    },
    {
        "id": 70,
        "latitude": 47.23123,
        "longitude": 98.5714,
        "title": "Rippin Group",
        "address": "8 Michigan Street"
    },
    {
        "id": 71,
        "latitude": 1.6737761,
        "longitude": 101.4367539,
        "title": "Jakubowski-Robel",
        "address": "24942 Ramsey Way"
    },
    {
        "id": 72,
        "latitude": 62.5898079,
        "longitude": 50.8599404,
        "title": "Hagenes, Rosenbaum and Bednar",
        "address": "43547 Roxbury Center"
    },
    {
        "id": 73,
        "latitude": 45.619588,
        "longitude": 122.838826,
        "title": "Russel Inc",
        "address": "290 Mccormick Court"
    },
    {
        "id": 74,
        "latitude": -27.604634,
        "longitude": -50.3069088,
        "title": "Erdman-Aufderhar",
        "address": "7 Harper Avenue"
    },
    {
        "id": 75,
        "latitude": -26.9272107,
        "longitude": -60.0485206,
        "title": "Zulauf-Turner",
        "address": "02128 Rusk Way"
    },
    {
        "id": 76,
        "latitude": -13.3346641,
        "longitude": -72.1579033,
        "title": "Gleason, Wunsch and Runte",
        "address": "9 Truax Junction"
    },
    {
        "id": 77,
        "latitude": 34.149491,
        "longitude": -118.099449,
        "title": "O'Conner, Orn and Wolff",
        "address": "8 Rockefeller Way"
    },
    {
        "id": 78,
        "latitude": 41.09028,
        "longitude": 128.29333,
        "title": "Skiles LLC",
        "address": "6035 North Road"
    },
    {
        "id": 79,
        "latitude": 51.209018,
        "longitude": 24.6980251,
        "title": "Crist-Kautzer",
        "address": "128 Daystar Alley"
    },
    {
        "id": 80,
        "latitude": 10.4937816,
        "longitude": -66.8760887,
        "title": "Walsh, Torp and Gerlach",
        "address": "79667 Fair Oaks Plaza"
    },
    {
        "id": 81,
        "latitude": 35.30385,
        "longitude": 113.875245,
        "title": "Wuckert Group",
        "address": "5260 East Point"
    },
    {
        "id": 82,
        "latitude": 34.2818498,
        "longitude": 109.002843,
        "title": "Schneider-Schaefer",
        "address": "3 Melrose Parkway"
    },
    {
        "id": 83,
        "latitude": -6.90572,
        "longitude": 109.01489,
        "title": "Schimmel, Wolff and Turner",
        "address": "145 Hanson Drive"
    },
    {
        "id": 84,
        "latitude": 51.0389656,
        "longitude": 21.0648754,
        "title": "Kerluke-Bailey",
        "address": "75296 Lerdahl Alley"
    },
    {
        "id": 85,
        "latitude": 13.6855601,
        "longitude": 100.444639,
        "title": "Heller Inc",
        "address": "80 Sauthoff Hill"
    },
    {
        "id": 86,
        "latitude": 16.944093,
        "longitude": 120.866442,
        "title": "Bayer and Sons",
        "address": "91017 Dennis Way"
    },
    {
        "id": 87,
        "latitude": 27.36017,
        "longitude": 111.581975,
        "title": "Strosin and Sons",
        "address": "0 Ridgeway Alley"
    },
    {
        "id": 88,
        "latitude": 43.3250688,
        "longitude": 132.3546464,
        "title": "O'Hara, Volkman and Jakubowski",
        "address": "8356 Elgar Place"
    },
    {
        "id": 89,
        "latitude": 38.88829,
        "longitude": 22.4641,
        "title": "Roberts, Rice and Mitchell",
        "address": "676 Golf View Road"
    },
    {
        "id": 90,
        "latitude": 4.3202706,
        "longitude": 21.1861342,
        "title": "Gibson, Cummerata and Jones",
        "address": "6022 Saint Paul Crossing"
    },
    {
        "id": 91,
        "latitude": 53.14214,
        "longitude": 17.60181,
        "title": "Dickens-Nitzsche",
        "address": "64183 Porter Way"
    },
    {
        "id": 92,
        "latitude": 39.109563,
        "longitude": 117.223371,
        "title": "Hirthe, Deckow and Nienow",
        "address": "573 Springs Pass"
    },
    {
        "id": 93,
        "latitude": 33.6722582,
        "longitude": -4.6308305,
        "title": "Jenkins, Corwin and Quitzon",
        "address": "7037 Johnson Trail"
    },
    {
        "id": 94,
        "latitude": 19.6612408,
        "longitude": -99.0795719,
        "title": "Sporer Inc",
        "address": "4 Southridge Road"
    },
    {
        "id": 95,
        "latitude": 6.9463216,
        "longitude": 1.1688978,
        "title": "Block Group",
        "address": "9870 Talisman Circle"
    },
    {
        "id": 96,
        "latitude": 59.5891945,
        "longitude": 16.5104253,
        "title": "Bode, Crona and Schuppe",
        "address": "40 Sycamore Pass"
    },
    {
        "id": 97,
        "latitude": 69.4326713,
        "longitude": 30.8274819,
        "title": "Muller, Abbott and Emard",
        "address": "6 Springview Court"
    },
    {
        "id": 98,
        "latitude": -9.3326512,
        "longitude": 32.7548364,
        "title": "Schiller LLC",
        "address": "43300 Elmside Parkway"
    },
    {
        "id": 99,
        "latitude": 44.0519136,
        "longitude": 42.8429639,
        "title": "Langworth Group",
        "address": "27 Drewry Avenue"
    },
    {
        "id": 100,
        "latitude": -35.0026606,
        "longitude": 173.5016887,
        "title": "Paucek LLC",
        "address": "72 Dorton Road"
    }
]